{
    "pokemon":[
        {
        "id": 63,
        "region": "Kanto",
        "shiny": "true",
        "name":"Abra",
        "coordinates": ["35.3479,136.9880","43.0446,141.4972"]
        },
        {
        "id": 190,    
        "region": "Johto",
        "shiny": "true",
        "name":"Aipom",
        "coordinates": ["nothing"]
        },
        {
        "id": 347,
        "region": "Hoenn",
        "shiny": "true",
        "name":"Anorith",
        "coordinates": ["nothing"]
        },
        {
        "id": 343,
        "region": "Hoenn",
        "shiny": "true",
        "name":"Baltoy",
        "coordinates": ["nothing"]
        },
        {
        "id": 399,
        "region": "Sinnoh",
        "shiny": "false",
        "name":"Bidoof",
        "coordinates": ["nothing"]
        },
        {
        "id": 522,
        "region": "Unova",
        "shiny": "false",
        "name":"Blitzle",
        "coordinates": ["-23.587713, -46.658521"]
        },
        {
        "id": 1,
        "region": "Kanto",
        "shiny": "true",
        "name":"Bulbasaur",
        "coordinates": ["33.7053,-118.0051","33.8113,-84.1453","35.6416,139.8548","37.8056,-122.3255"]
        },
        {
        "id": 427,
        "region": "Sinnoh",
        "shiny": "true",
        "name":"Buneary",
        "coordinates": ["nothing"]
        },
        {
        "id": 318,
        "region": "Hoenn",
        "shiny": "true",
        "name":"Carvanha",
        "coordinates": ["nothing"]
        },
        {
        "id": 4,
        "region": "Kanto",
        "shiny": "true",
        "name":"Charmander",
        "coordinates": ["42.3383,-82.9854","44.0212,-88.5179","50.6933,4.0473"]
        },
        {
        "id": 152,
        "region": "Johto",
        "shiny": "true",
        "name":"Chikorita",
        "coordinates": ["13.7308,100.5406","19.4224,-99.1891","35.7340,139.7463"]
        },
        {
        "id": 390,
        "region": "Sinnoh",
        "shiny": "true",
        "name":"Chimchar",
        "coordinates": ["nothing"]
        },
        {
        "id": 170,
        "region": "Johto",
        "shiny": "true",
        "name":"Chinchou",
        "coordinates": ["37.1709,-93.3270"]
        },
        {
        "id": 35,
        "region": "Kanto",
        "shiny": "true",
        "name":"Clefairy",
        "coordinates": ["49.4841,8.4939","51.7484,-0.3498"]
        },
        {
        "id": 341,
        "region": "Hoenn",
        "shiny": "false",    
        "name":"Corphish",
        "coordinates": ["nothing"]
        },
        {
        "id": 453,
        "region": "Sinnoh",
        "shiny": "true",
        "name":"Croagunk",
        "coordinates": ["nothing"]
        },
        {
        "id": 104,
        "region": "Kanto",
        "shiny": "true",
        "name":"Cubone",
        "coordinates": ["nothing"]
        },
        {
        "id": 155,
        "region": "Johto",
        "shiny": "true",
        "name":"Cyndaquil",
        "coordinates": ["35.3705,137.0293","37.8055,-122.2577"]
        },
        {
        "id": 84,
        "region": "Kanto",
        "shiny": "true",
        "name":"Doduo",
        "coordinates": ["51.4816,-0.1579"]
        },
        {
        "id": 206,
        "region": "Johto",
        "shiny": "true",
        "name":"Dunsparce",
        "coordinates": ["23.0669,120.2977","37.3164,126.8591","37.3419,-121.9039"]
        },
        {
        "id": 355,
        "region": "Hoenn",
        "shiny": "true",
        "name":"Duskull",
        "coordinates": ["nothing"]
        },
        {
        "id": 133,
        "region": "Kanto",
        "shiny": "true",
        "name":"Eevee",
        "coordinates": ["-41.3045,174.7906","43.2904,-79.8754","44.8612,-93.6175"]
        },
        {
        "id": 125,
        "region": "Kanto",
        "shiny": "false",
        "name":"Electabuzz",
        "coordinates": ["39.2417,-76.8582","39.9835,-75.2104","41.8709,-71.3469","47.7103,-122.3671"]
        },
        {
        "id": 309,
        "region": "Hoenn",
        "shiny": "true",
        "name":"Electrike",
        "coordinates": ["nothing"]
        },
        {
        "id": 102,
        "region": "Kanto",
        "shiny": "true",
        "name":"Exeggcute",
        "coordinates": ["34.1467,-118.2902","35.8414,128.5603","44.8592,-92.7744"]
        },
        {
        "id": 590,
        "region": "Unova",
        "shiny": "false",
        "name":"Foongus",
        "coordinates": ["nothing"]
        },
        {
        "id": 92,
        "region": "Kanto",
        "shiny": "true",
        "name":"Gastly",
        "coordinates": ["-33.8960,151.2349"]
        },
        {
        "id": 203,
        "region": "Johto",
        "shiny": "false",
        "name":"Girafarig",
        "coordinates": ["34.6516,135.5094","39.6530,-84.2254","41.7971,140.7568"]
        },
        {
        "id": 58,
        "region": "Kanto",
        "shiny": "true",
        "name":"Growlithe",
        "coordinates": ["nothing"]
        },
        {
        "id": 449,
        "region": "Sinnoh",
        "shiny": "true",
        "name":"Hippopotas",
        "coordinates": ["nothing"]
        },
        {
        "id": 116,
        "region": "Kanto",
        "shiny": "true",
        "name":"Horsea",
        "coordinates": ["50.7064,7.1478"]
        },
        {
        "id": 124,
        "region": "Kanto",
        "shiny": "false",
        "name":"Jynx",
        "coordinates": ["-36.8979,174.7849","49.9264,4.5214"]
        },
        {
        "id": 140,
        "region": "Kanto",
        "shiny": "true",
        "name":"Kabuto",
        "coordinates": ["25.6792,-100.2856","36.8261,-76.1265"]
        },
        {
        "id": 401,
        "region": "Sinnoh",
        "shiny": "false",
        "name":"Kricketot",
        "coordinates": ["nothing"]
        },
        {
        "id": 345,
        "region": "Hoenn",
        "shiny": "true",
        "name":"Lileep",
        "coordinates": ["nothing"]
        },
        {
        "id": 506,
        "region": "Unova",
        "shiny": "true",
        "name":"Lillipup",
        "coordinates": ["nothing"]
        },
        {
        "id": 370,
        "region": "Hoenn",
        "shiny": "true",
        "name":"Luvdisc",
        "coordinates": ["nothing"]
        },
        {
        "id": 66,
        "region": "Kanto",
        "shiny": "true",
        "name":"Machop",
        "coordinates": ["-26.5072,-49.1277","34.7194,137.4342"]
        },
        {
        "id": 129,
        "region": "Kanto",
        "shiny": "true",
        "name":"Magikarp",
        "coordinates": ["-25.7348,28.1888","29.9853,-90.0966","36.2426,139.5435","37.5285,126.9326"]
        },
        {
        "id": 126,
        "region": "Kanto",
        "shiny": "true",
        "name":"Magmar",
        "coordinates": ["22.5359,120.5903","51.4155,-0.3368"]
        },
        {
        "id": 81,
        "region": "Kanto",
        "shiny": "true",
        "name":"Magnemite",
        "coordinates": ["-6.3028,106.8947","30.6416,-96.2966","37.5792,126.9768"]
        },
        {
        "id": 296,
        "region": "Hoenn",
        "shiny": "true",
        "name":"Makuhita",
        "coordinates": ["nothing"]
        },
        {
        "id": 226,
        "region": "Johto",
        "shiny": "false",
        "name":"Mantine",
        "coordinates": ["nothing"]
        },
        {
        "id": 307,
        "region": "Hoenn",
        "shiny": "true",
        "name":"Meditite",
        "coordinates": ["nothing"]
        },
        {
        "id": 312,
        "region": "Hoenn",
        "shiny": "true",
        "name":"Minun",
        "coordinates": ["nothing"]
        },
        {
        "id": 200,
        "region": "Johto",
        "shiny": "true",
        "name":"Misdreavus",
        "coordinates": ["37.7201,-122.4131","40.7709,-73.9726","43.6534,-87.7282","45.5154,-122.7169"]
        },
        {
        "id": 258,
        "region": "Hoenn",
        "shiny": "true",
        "name":"Mudkip",
        "coordinates": ["nothing"]
        },
        {
        "id": 299,
        "region": "Hoenn",
        "shiny": "false",
        "name":"Nosepass",
        "coordinates": ["nothing"]
        },
        {
        "id": 322,
        "region": "Hoenn",
        "shiny": "false",
        "name":"Numel",
        "coordinates": ["nothing"]
        },
        {
        "id": 43,
        "region": "Kanto",
        "shiny": "true",
        "name":"Oddish",
        "coordinates": ["34.0152,-118.2869","35.6234,139.6629","36.9391,140.9176"]
        },
        {
        "id": 138,
        "region": "Kanto",
        "shiny": "true",
        "name":"Omanyte",
        "coordinates": ["nothing"]
        },
        {
        "id": 95,
        "region": "Kanto",
        "shiny": "true",
        "name":"Onix",
        "coordinates": ["-7.2517,112.8036","36.0374,-115.0543","48.8772,2.2650"]
        },
        {
        "id": 501,
        "region": "Unova",
        "shiny": "false",
        "name":"Oshawott",
        "coordinates": ["nothing"]
        },
        {
        "id": 504,
        "region": "Unova",
        "shiny": "true",
        "name":"Patrat",
        "coordinates": ["nothing"]
        },
        {
        "id": 231,
        "region": "Johto",
        "shiny": "false",
        "name":"Phanpy",
        "coordinates": ["49.2395,-123.1352"]
        },
        {
        "id": 25,
        "region": "Kanto",
        "shiny": "true",
        "name":"Pikachu",
        "coordinates": ["34.5393,135.4392","38.6400,-90.2846","41.9377,-87.6366"]
        },
        {
        "id": 127,
        "region": "Kanto",
        "shiny": "true",
        "name":"Pinsir",
        "coordinates": ["nothing"]
        },
        {
        "id": 393,
        "region": "Sinnoh",
        "shiny": "true",
        "name":"Piplup",
        "coordinates": ["nothing"]
        },
        {
        "id": 311,
        "region": "Hoenn",
        "shiny": "true",
        "name":"Plusle",
        "coordinates": ["nothing"]
        },
        {
        "id": 60,
        "region": "Kanto",
        "shiny": "true",
        "name":"Poliwag",
        "coordinates": ["nothing"]
        },
        {
        "id": 77,
        "region": "Kanto",
        "shiny": "true",
        "name":"Ponyta",
        "coordinates": ["17.0180,99.7020","42.3542,-71.0705","54.5141,-1.5579"]
        },
        {
        "id": 261,
        "region": "Hoenn",
        "shiny": "true",
        "name":"Poochyena",
        "coordinates": ["nothing"]
        },
        {
        "id": 54,
        "region": "Kanto",
        "shiny": "true",
        "name":"Psyduck",
        "coordinates": ["32.4980,-116.9394"]
        },
        {
        "id": 509,
        "region": "Unova",
        "shiny": "false",
        "name":"Purrloin",
        "coordinates": ["nothing"]
        },
        {
        "id": 211,
        "region": "Johto",
        "shiny": "true",
        "name":"Qwilfish",
        "coordinates": ["34.7148,137.6033","41.5721,-93.6385","42.4187,-82.2084","52.0571,4.2890"]
        },
        {
        "id": 111,
        "region": "Kanto",
        "shiny": "true",
        "name":"Rhyhorn",
        "coordinates": ["24.0258,-104.6869","35.7082,139.3946","48.8283,2.4194"]
        },
        {
        "id": 302,
        "region": "Hoenn",
        "shiny": "true",
        "name":"Sableye",
        "coordinates": ["nothing"]
        },
        {
        "id": 123,
        "region": "Kanto",
        "shiny": "true",
        "name":"Scyther",
        "coordinates": ["-31.9617,115.8424","-36.8622,174.7735","34.0349,-118.0570","34.9353,134.9404"]
        },
        {
        "id": 273,
        "region": "Hoenn",
        "shiny": "true",
        "name":"Seedot",
        "coordinates": ["nothing"]
        },
        {
        "id": 86,
        "region": "Kanto",
        "shiny": "true",
        "name":"Seel",
        "coordinates": ["nothing"]
        },
        {
        "id": 90,
        "region": "Kanto",
        "shiny": "true",
        "name":"Shellder",
        "coordinates": ["52.2132,21.0340"]
        },
        {
        "id": 285,
        "region": "Hoenn",
        "shiny": "false",
        "name":"Shroomish",
        "coordinates": ["nothing"]
        },
        {
        "id": 213,
        "region": "Johto",
        "shiny": "true",
        "name":"Shuckle",
        "coordinates": ["51.5064,-0.1567"]
        },
        {
        "id": 353,
        "region": "Hoenn",
        "shiny": "true",
        "name":"Shuppet",
        "coordinates": ["nothing"]
        },
        {
        "id": 227,
        "region": "Hoenn",
        "shiny": "true",
        "name":"Skarmory",
        "coordinates": ["26.6882,127.8753","34.7630,135.7047","34.8091,135.5324","35.4214,137.0997","39.3222,-76.6413"]
        },
        {
        "id": 300,
        "region": "Hoenn",
        "shiny": "true",
        "name":"Skitty",
        "coordinates": ["nothing"]
        },
        {
        "id": 215,
        "region": "Johto",
        "shiny": "true",
        "name":"Sneasel",
        "coordinates": ["40.6897,-74.0148","51.1551,6.8704"]
        },
        {
        "id": 495,
        "region": "Unova",
        "shiny": "false",
        "name":"Snivy",
        "coordinates": ["nothing"]
        },
        {
        "id": 209,
        "region": "Johto",
        "shiny": "true",
        "name":"Snubbull",
        "coordinates": ["35.6727,139.6950"]
        },
        {
        "id": 325,
        "region": "Hoenn",
        "shiny": "true",
        "name":"Spoink",
        "coordinates": ["nothing"]
        },
        {
        "id": 7,
        "region": "Kanto",
        "shiny": "true",
        "name":"Squirtle",
        "coordinates": ["34.6829,135.8473","37.3257,-121.8612"]
        },
        {
        "id": 234,
        "region": "Johto",
        "shiny": "true",
        "name":"Stantler",
        "coordinates": ["43.4954,-87.7941","49.8697,-97.2390"]
        },
        {
        "id": 434,
        "region": "Sinnoh",
        "shiny": "false",
        "name":"Stunky",
        "coordinates": ["nothing"]
        },
        {
        "id": 185,
        "region": "Johto",
        "shiny": "true",
        "name":"Sudowoodo",
        "coordinates": ["40.4095,-3.6797"]
        },
        {
        "id": 283,
        "region": "Hoenn",
        "shiny": "false",
        "name":"Surskit",
        "coordinates": ["nothing"]
        },
        {
        "id": 333,
        "region": "Hoenn",
        "shiny": "true",
        "name":"Swablu",
        "coordinates": ["nothing"]
        },
        {
        "id": 220,
        "region": "Johto",
        "shiny": "true",
        "name":"Swinub",
        "coordinates": ["34.2273,135.1711","36.9016,-76.2002","37.7685,-122.4827","51.5325,-0.1505"]
        },
        {
        "id": 216,
        "region": "Johto",
        "shiny": "true",
        "name":"Teddiursa",
        "coordinates": ["36.3696,140.4545","53.5959,10.0152"]
        },
        {
        "id": 72,
        "region": "Kanto",
        "shiny": "true",
        "name":"Tentacool",
        "coordinates": ["48.1587,11.5975"]
        },
        {
        "id": 498,
        "region": "Unova",
        "shiny": "false",
        "name":"Tepig",
        "coordinates": ["nothing"]
        },
        {
        "id": 255,
        "region": "Hoenn",
        "shiny": "true",
        "name":"Torchic",
        "coordinates": ["nothing"]
        },
        {
        "id": 158,
        "region": "Johto",
        "shiny": "true",
        "name":"Totodile",
        "coordinates": ["-18.9102,-48.2322","-37.7874,144.9508"]
        },
        {
        "id": 252,
        "region": "Hoenn",
        "shiny": "true",
        "name":"Treecko",
        "coordinates": ["nothing"]
        },
        {
        "id": 387,
        "region": "Sinnoh",
        "shiny": "true",
        "name":"Turtwig",
        "coordinates": ["nothing"]
        },
        {
        "id": 100,
        "region": "Kanto",
        "shiny": "true",
        "name":"Voltorb",
        "coordinates": ["-6.1255,106.8364","37.5504,126.9924","45.5592,-73.5580"]
        },
        {
        "id": 37,
        "region": "Kanto",
        "shiny": "false",
        "name":"Vulpix",
        "coordinates": ["-22.9059,-43.2250","27.3812,-82.5606"]
        },
        {
        "id": 320,
        "region": "Hoenn",
        "shiny": "true",
        "name":"Wailmer",
        "coordinates": ["nothing"]
        },
        {
        "id": 278,
        "region": "Hoenn",
        "shiny": "true",
        "name":"Wingull",
        "coordinates": ["nothing"]
        },
        {
        "id": 202,
        "region": "Johto",
        "shiny": "true",
        "name":"Wobbuffet",
        "coordinates": ["35.7609,140.0615","36.4901,139.9973","47.6815,-122.2501"]
        },
        {
        "id": 193,
        "region": "Johto",
        "shiny": "true",
        "name":"Yanma",
        "coordinates": ["32.0389,-102.0742","35.2702,136.9892","36.2461,-115.1509","37.8056,-122.4279","39.6960,-104.9699","40.7737,-96.7724","51.5060,-0.1794"]
        }
    ]
}